[{"RecordID":1,"OrderID":"68968-5553","ShipCountry":"PH","ShipCity":"Pogonsili","ShipName":"Yundt-Bosco","ShipAddress":"926 Mitchell Trail","CompanyEmail":"hburnett0@artisteer.com","CompanyAgent":"Harlan Burnett","Currency":"PHP","Notes":"neque libero convallis eget eleifend luctus ultricies eu nibh quisque id justo sit","Department":"Movies","Website":"deviantart.com","Latitude":"15.82048","Longitude":"120.26017","ShipDate":"4/14/2016","TimeZone":"Asia/Manila","Status":4},
{"RecordID":2,"OrderID":"35356-729","ShipCountry":"ID","ShipCity":"Mekarsari","ShipName":"Thompson-Swift","ShipAddress":"01275 Fordem Lane","CompanyEmail":"gdionis1@squarespace.com","CompanyAgent":"Gabriellia Dionis","Currency":"IDR","Notes":"at nunc commodo placerat praesent blandit nam nulla integer pede justo lacinia eget tincidunt eget tempus vel pede morbi","Department":"Clothing","Website":"home.pl","Latitude":"-6.1351","Longitude":"105.9047","ShipDate":"2/5/2016","TimeZone":"Asia/Jakarta","Status":5},
{"RecordID":3,"OrderID":"52920-123","ShipCountry":"JP","ShipCity":"Kure","ShipName":"Yundt LLC","ShipAddress":"67 Loeprich Way","CompanyEmail":"wmarthen2@ft.com","CompanyAgent":"Wendeline Marthen","Currency":"JPY","Notes":"erat quisque erat eros viverra eget congue eget semper rutrum nulla","Department":"Baby","Website":"mtv.com","Latitude":"34.23222","Longitude":"132.56658","ShipDate":"7/26/2016","TimeZone":"Asia/Tokyo","Status":1},
{"RecordID":4,"OrderID":"63736-003","ShipCountry":"SV","ShipCity":"Victoria","ShipName":"VonRueden and Sons","ShipAddress":"18 Oakridge Drive","CompanyEmail":"rburchall3@google.ru","CompanyAgent":"Rayshell Burchall","Currency":"USD","Notes":"tincidunt lacus at velit vivamus vel nulla eget eros elementum pellentesque","Department":"Grocery","Website":"deliciousdays.com","Latitude":"13.95","Longitude":"-88.63333","ShipDate":"6/23/2016","TimeZone":"America/El_Salvador","Status":3},
{"RecordID":5,"OrderID":"52125-127","ShipCountry":"SY","ShipCity":"Shahbā","ShipName":"Cruickshank and Sons","ShipAddress":"2 Onsgard Way","CompanyEmail":"dlies4@fda.gov","CompanyAgent":"Dilan Lies","Currency":"SYP","Notes":"amet justo morbi ut odio cras mi pede malesuada in imperdiet et commodo","Department":"Health","Website":"smh.com.au","Latitude":"32.85514","Longitude":"36.62896","ShipDate":"12/27/2016","TimeZone":"Asia/Damascus","Status":2},
{"RecordID":6,"OrderID":"24236-012","ShipCountry":"GE","ShipCity":"Akhaldaba","ShipName":"Simonis, Dicki and Kassulke","ShipAddress":"40111 Delladonna Crossing","CompanyEmail":"cglison5@gizmodo.com","CompanyAgent":"Corney Glison","Currency":"GEL","Notes":"bibendum morbi non quam nec dui luctus rutrum nulla tellus in sagittis dui vel nisl duis ac nibh fusce","Department":"Sports","Website":"delicious.com","Latitude":"41.65395","Longitude":"42.15163","ShipDate":"9/14/2016","TimeZone":"Asia/Tbilisi","Status":2},
{"RecordID":7,"OrderID":"57520-0353","ShipCountry":"ID","ShipCity":"Cibebek","ShipName":"Konopelski-Dicki","ShipAddress":"27 Pleasure Plaza","CompanyEmail":"bbedrosian6@ovh.net","CompanyAgent":"Brnaby Bedrosian","Currency":"IDR","Notes":"consequat ut nulla sed accumsan felis ut at dolor quis odio consequat varius integer ac leo pellentesque","Department":"Outdoors","Website":"wisc.edu","Latitude":"-6.34156","Longitude":"106.07674","ShipDate":"9/14/2016","TimeZone":"Asia/Jakarta","Status":6},
{"RecordID":8,"OrderID":"25010-210","ShipCountry":"VN","ShipCity":"Thị Trấn Yên Cát","ShipName":"Stokes LLC","ShipAddress":"40 Chive Street","CompanyEmail":"epardie7@youtube.com","CompanyAgent":"Edgard Pardie","Currency":"VND","Notes":"consequat in consequat ut nulla sed accumsan felis ut at dolor quis odio","Department":"Baby","Website":"comsenz.com","Latitude":"19.66327","Longitude":"105.42854","ShipDate":"6/10/2016","TimeZone":"Asia/Ho_Chi_Minh","Status":4},
{"RecordID":9,"OrderID":"65649-311","ShipCountry":"RU","ShipCity":"Lebedyan’","ShipName":"Predovic-Crooks","ShipAddress":"50 Grim Pass","CompanyEmail":"smuck8@webeden.co.uk","CompanyAgent":"Shaughn Muck","Currency":"RUB","Notes":"tellus semper interdum mauris ullamcorper purus sit amet nulla quisque arcu libero rutrum ac","Department":"Baby","Website":"sina.com.cn","Latitude":"53.01942","Longitude":"39.16639","ShipDate":"12/23/2016","TimeZone":"Europe/Moscow","Status":2},
{"RecordID":10,"OrderID":"0338-0671","ShipCountry":"ID","ShipCity":"Ciakar","ShipName":"Koelpin, Olson and Ferry","ShipAddress":"65494 Tennyson Street","CompanyEmail":"phoutby9@mozilla.com","CompanyAgent":"Packston Houtby","Currency":"IDR","Notes":"erat eros viverra eget congue eget semper rutrum nulla nunc purus phasellus in felis donec semper sapien a libero","Department":"Music","Website":"technorati.com","Latitude":"-7.2128","Longitude":"106.9069","ShipDate":"8/24/2016","TimeZone":"Asia/Jakarta","Status":1}]
